{
"type": "FeatureCollection",
"name": "UPT_PUSKESMAS_JSON",
"crs": { "type": "name", "properties": { "name": "urn:ogc:def:crs:OGC:1.3:CRS84" } },
"features": [
{ "type": "Feature", "properties": { "OID_": 0, "Name": "Bakung", "FolderPath": "Persebaran UPT Puskesmas Bandar Lampung.kml/Persebaran UPT Puskesmas Bandar Lampung", "SymbolID": 0, "AltMode": -1, "Base": 0.0, "Snippet": null, "PopupInfo": null, "HasLabel": -1, "LabelID": 0 }, "geometry": { "type": "Point", "coordinates": [ 105.248085123000067, -5.454886970999951, 0.0 ] } },
{ "type": "Feature", "properties": { "OID_": 0, "Name": "Rawat Inap Sukamaju", "FolderPath": "Persebaran UPT Puskesmas Bandar Lampung.kml/Persebaran UPT Puskesmas Bandar Lampung", "SymbolID": 0, "AltMode": -1, "Base": 0.0, "Snippet": null, "PopupInfo": null, "HasLabel": -1, "LabelID": 0 }, "geometry": { "type": "Point", "coordinates": [ 105.24472478000007, -5.470238116999951, 0.0 ] } },
{ "type": "Feature", "properties": { "OID_": 0, "Name": "Rawat Inap Kota Karang", "FolderPath": "Persebaran UPT Puskesmas Bandar Lampung.kml/Persebaran UPT Puskesmas Bandar Lampung", "SymbolID": 0, "AltMode": -1, "Base": 0.0, "Snippet": null, "PopupInfo": null, "HasLabel": -1, "LabelID": 0 }, "geometry": { "type": "Point", "coordinates": [ 105.257941115000051, -5.457580740999958, 0.0 ] } },
{ "type": "Feature", "properties": { "OID_": 0, "Name": "Pasar Ambon", "FolderPath": "Persebaran UPT Puskesmas Bandar Lampung.kml/Persebaran UPT Puskesmas Bandar Lampung", "SymbolID": 0, "AltMode": -1, "Base": 0.0, "Snippet": null, "PopupInfo": null, "HasLabel": -1, "LabelID": 0 }, "geometry": { "type": "Point", "coordinates": [ 105.257029021000051, -5.449884828999927, 0.0 ] } },
{ "type": "Feature", "properties": { "OID_": 0, "Name": "Rawat Inap Sukaraja", "FolderPath": "Persebaran UPT Puskesmas Bandar Lampung.kml/Persebaran UPT Puskesmas Bandar Lampung", "SymbolID": 0, "AltMode": -1, "Base": 0.0, "Snippet": null, "PopupInfo": null, "HasLabel": -1, "LabelID": 0 }, "geometry": { "type": "Point", "coordinates": [ 105.289978321000035, -5.444072050999978, 0.0 ] } },
{ "type": "Feature", "properties": { "OID_": 0, "Name": "Rawat Inap Panjang", "FolderPath": "Persebaran UPT Puskesmas Bandar Lampung.kml/Persebaran UPT Puskesmas Bandar Lampung", "SymbolID": 0, "AltMode": -1, "Base": 0.0, "Snippet": null, "PopupInfo": null, "HasLabel": -1, "LabelID": 0 }, "geometry": { "type": "Point", "coordinates": [ 105.32283502100006, -5.477313007999953, 0.0 ] } },
{ "type": "Feature", "properties": { "OID_": 0, "Name": "Rawat Inap Way Laga", "FolderPath": "Persebaran UPT Puskesmas Bandar Lampung.kml/Persebaran UPT Puskesmas Bandar Lampung", "SymbolID": 0, "AltMode": -1, "Base": 0.0, "Snippet": null, "PopupInfo": null, "HasLabel": -1, "LabelID": 0 }, "geometry": { "type": "Point", "coordinates": [ 105.326708979000045, -5.43495868499997, 0.0 ] } },
{ "type": "Feature", "properties": { "OID_": 0, "Name": "Rawat Inap Satelit", "FolderPath": "Persebaran UPT Puskesmas Bandar Lampung.kml/Persebaran UPT Puskesmas Bandar Lampung", "SymbolID": 0, "AltMode": -1, "Base": 0.0, "Snippet": null, "PopupInfo": null, "HasLabel": -1, "LabelID": 0 }, "geometry": { "type": "Point", "coordinates": [ 105.269623929000034, -5.422732543999928, 0.0 ] } },
{ "type": "Feature", "properties": { "OID_": 0, "Name": "Rawat Inap Kampung Sawah", "FolderPath": "Persebaran UPT Puskesmas Bandar Lampung.kml/Persebaran UPT Puskesmas Bandar Lampung", "SymbolID": 0, "AltMode": -1, "Base": 0.0, "Snippet": null, "PopupInfo": null, "HasLabel": -1, "LabelID": 0 }, "geometry": { "type": "Point", "coordinates": [ 105.263683024000045, -5.407465310999953, 0.0 ] } },
{ "type": "Feature", "properties": { "OID_": 0, "Name": "Campang Raya", "FolderPath": "Persebaran UPT Puskesmas Bandar Lampung.kml/Persebaran UPT Puskesmas Bandar Lampung", "SymbolID": 0, "AltMode": -1, "Base": 0.0, "Snippet": null, "PopupInfo": null, "HasLabel": -1, "LabelID": 0 }, "geometry": { "type": "Point", "coordinates": [ 105.302446176000046, -5.406375382999954, 0.0 ] } },
{ "type": "Feature", "properties": { "OID_": 0, "Name": "Kupang Kota", "FolderPath": "Persebaran UPT Puskesmas Bandar Lampung.kml/Persebaran UPT Puskesmas Bandar Lampung", "SymbolID": 0, "AltMode": -1, "Base": 0.0, "Snippet": null, "PopupInfo": null, "HasLabel": -1, "LabelID": 0 }, "geometry": { "type": "Point", "coordinates": [ 105.266387623000071, -5.443139749999943, 0.0 ] } },
{ "type": "Feature", "properties": { "OID_": 0, "Name": "Sumur Batu", "FolderPath": "Persebaran UPT Puskesmas Bandar Lampung.kml/Persebaran UPT Puskesmas Bandar Lampung", "SymbolID": 0, "AltMode": -1, "Base": 0.0, "Snippet": null, "PopupInfo": null, "HasLabel": -1, "LabelID": 0 }, "geometry": { "type": "Point", "coordinates": [ 105.261686331000078, -5.434403375999977, 0.0 ] } },
{ "type": "Feature", "properties": { "OID_": 0, "Name": "SIMPUR", "FolderPath": "Persebaran UPT Puskesmas Bandar Lampung.kml/Persebaran UPT Puskesmas Bandar Lampung", "SymbolID": 0, "AltMode": -1, "Base": 0.0, "Snippet": null, "PopupInfo": null, "HasLabel": -1, "LabelID": 0 }, "geometry": { "type": "Point", "coordinates": [ 105.248109525000075, -5.410843966999948, 0.0 ] } },
{ "type": "Feature", "properties": { "OID_": 0, "Name": "Palapa", "FolderPath": "Persebaran UPT Puskesmas Bandar Lampung.kml/Persebaran UPT Puskesmas Bandar Lampung", "SymbolID": 0, "AltMode": -1, "Base": 0.0, "Snippet": null, "PopupInfo": null, "HasLabel": -1, "LabelID": 0 }, "geometry": { "type": "Point", "coordinates": [ 105.248534831000086, -5.415732033999973, 0.0 ] } },
{ "type": "Feature", "properties": { "OID_": 0, "Name": "Kebon Jahe", "FolderPath": "Persebaran UPT Puskesmas Bandar Lampung.kml/Persebaran UPT Puskesmas Bandar Lampung", "SymbolID": 0, "AltMode": -1, "Base": 0.0, "Snippet": null, "PopupInfo": null, "HasLabel": -1, "LabelID": 0 }, "geometry": { "type": "Point", "coordinates": [ 105.260371629000076, -5.425787987999968, 0.0 ] } },
{ "type": "Feature", "properties": { "OID_": 0, "Name": "Rawat Inap Gedong Air", "FolderPath": "Persebaran UPT Puskesmas Bandar Lampung.kml/Persebaran UPT Puskesmas Bandar Lampung", "SymbolID": 0, "AltMode": -1, "Base": 0.0, "Snippet": null, "PopupInfo": null, "HasLabel": -1, "LabelID": 0 }, "geometry": { "type": "Point", "coordinates": [ 105.244425484000033, -5.40073384599998, 0.0 ] } },
{ "type": "Feature", "properties": { "OID_": 0, "Name": "Susunan Baru", "FolderPath": "Persebaran UPT Puskesmas Bandar Lampung.kml/Persebaran UPT Puskesmas Bandar Lampung", "SymbolID": 0, "AltMode": -1, "Base": 0.0, "Snippet": null, "PopupInfo": null, "HasLabel": -1, "LabelID": 0 }, "geometry": { "type": "Point", "coordinates": [ 105.231223918000069, -5.401272373999973, 0.0 ] } },
{ "type": "Feature", "properties": { "OID_": 0, "Name": "Segala Mider", "FolderPath": "Persebaran UPT Puskesmas Bandar Lampung.kml/Persebaran UPT Puskesmas Bandar Lampung", "SymbolID": 0, "AltMode": -1, "Base": 0.0, "Snippet": null, "PopupInfo": null, "HasLabel": -1, "LabelID": 0 }, "geometry": { "type": "Point", "coordinates": [ 105.235872270000073, -5.391983664999941, 0.0 ] } },
{ "type": "Feature", "properties": { "OID_": 0, "Name": "Rawat Inap Kemiling", "FolderPath": "Persebaran UPT Puskesmas Bandar Lampung.kml/Persebaran UPT Puskesmas Bandar Lampung", "SymbolID": 0, "AltMode": -1, "Base": 0.0, "Snippet": null, "PopupInfo": null, "HasLabel": -1, "LabelID": 0 }, "geometry": { "type": "Point", "coordinates": [ 105.216958124000087, -5.392825499999958, 0.0 ] } },
{ "type": "Feature", "properties": { "OID_": 0, "Name": "Pinang Jaya", "FolderPath": "Persebaran UPT Puskesmas Bandar Lampung.kml/Persebaran UPT Puskesmas Bandar Lampung", "SymbolID": 0, "AltMode": -1, "Base": 0.0, "Snippet": null, "PopupInfo": null, "HasLabel": -1, "LabelID": 0 }, "geometry": { "type": "Point", "coordinates": [ 105.192865134000044, -5.393308872999967, 0.0 ] } },
{ "type": "Feature", "properties": { "OID_": 0, "Name": "Beringin Raya", "FolderPath": "Persebaran UPT Puskesmas Bandar Lampung.kml/Persebaran UPT Puskesmas Bandar Lampung", "SymbolID": 0, "AltMode": -1, "Base": 0.0, "Snippet": null, "PopupInfo": null, "HasLabel": -1, "LabelID": 0 }, "geometry": { "type": "Point", "coordinates": [ 105.21219876300006, -5.396584386999962, 0.0 ] } },
{ "type": "Feature", "properties": { "OID_": 0, "Name": "Rawat Inap Kedaton", "FolderPath": "Persebaran UPT Puskesmas Bandar Lampung.kml/Persebaran UPT Puskesmas Bandar Lampung", "SymbolID": 0, "AltMode": -1, "Base": 0.0, "Snippet": null, "PopupInfo": null, "HasLabel": -1, "LabelID": 0 }, "geometry": { "type": "Point", "coordinates": [ 105.260235825000052, -5.38412061799994, 0.0 ] } },
{ "type": "Feature", "properties": { "OID_": 0, "Name": "Rajabasa Indah", "FolderPath": "Persebaran UPT Puskesmas Bandar Lampung.kml/Persebaran UPT Puskesmas Bandar Lampung", "SymbolID": 0, "AltMode": -1, "Base": 0.0, "Snippet": null, "PopupInfo": null, "HasLabel": -1, "LabelID": 0 }, "geometry": { "type": "Point", "coordinates": [ 105.227111771000068, -5.373232018999943, 0.0 ] } },
{ "type": "Feature", "properties": { "OID_": 0, "Name": "Way Kandis", "FolderPath": "Persebaran UPT Puskesmas Bandar Lampung.kml/Persebaran UPT Puskesmas Bandar Lampung", "SymbolID": 0, "AltMode": -1, "Base": 0.0, "Snippet": null, "PopupInfo": null, "HasLabel": -1, "LabelID": 0 }, "geometry": { "type": "Point", "coordinates": [ 105.289413683000078, -5.363104613999951, 0.0 ] } },
{ "type": "Feature", "properties": { "OID_": 0, "Name": "Labuhan Ratu", "FolderPath": "Persebaran UPT Puskesmas Bandar Lampung.kml/Persebaran UPT Puskesmas Bandar Lampung", "SymbolID": 0, "AltMode": -1, "Base": 0.0, "Snippet": null, "PopupInfo": null, "HasLabel": -1, "LabelID": 0 }, "geometry": { "type": "Point", "coordinates": [ 105.253996531000041, -5.360424357999932, 0.0 ] } },
{ "type": "Feature", "properties": { "OID_": 0, "Name": "Rawat Inap Permata Sukarame", "FolderPath": "Persebaran UPT Puskesmas Bandar Lampung.kml/Persebaran UPT Puskesmas Bandar Lampung", "SymbolID": 0, "AltMode": -1, "Base": 0.0, "Snippet": null, "PopupInfo": null, "HasLabel": -1, "LabelID": 0 }, "geometry": { "type": "Point", "coordinates": [ 105.303943779000065, -5.385977460999925, 0.0 ] } },
{ "type": "Feature", "properties": { "OID_": 0, "Name": "KORPRI", "FolderPath": "Persebaran UPT Puskesmas Bandar Lampung.kml/Persebaran UPT Puskesmas Bandar Lampung", "SymbolID": 0, "AltMode": -1, "Base": 0.0, "Snippet": null, "PopupInfo": null, "HasLabel": -1, "LabelID": 0 }, "geometry": { "type": "Point", "coordinates": [ 105.302076024000087, -5.371492109999963, 0.0 ] } },
{ "type": "Feature", "properties": { "OID_": 0, "Name": "Rawat Inap Sukabumi", "FolderPath": "Persebaran UPT Puskesmas Bandar Lampung.kml/Persebaran UPT Puskesmas Bandar Lampung", "SymbolID": 0, "AltMode": -1, "Base": 0.0, "Snippet": null, "PopupInfo": null, "HasLabel": -1, "LabelID": 0 }, "geometry": { "type": "Point", "coordinates": [ 105.299330463000047, -5.397781376999944, 0.0 ] } },
{ "type": "Feature", "properties": { "OID_": 0, "Name": "Rawat Inap Way Halim 2", "FolderPath": "Persebaran UPT Puskesmas Bandar Lampung.kml/Persebaran UPT Puskesmas Bandar Lampung", "SymbolID": 0, "AltMode": -1, "Base": 0.0, "Snippet": null, "PopupInfo": null, "HasLabel": -1, "LabelID": 0 }, "geometry": { "type": "Point", "coordinates": [ 105.274387910000087, -5.377838572999963, 0.0 ] } },
{ "type": "Feature", "properties": { "OID_": 0, "Name": "Puskesmas Way Halim", "FolderPath": "Persebaran UPT Puskesmas Bandar Lampung.kml/Persebaran UPT Puskesmas Bandar Lampung", "SymbolID": 0, "AltMode": -1, "Base": 0.0, "Snippet": null, "PopupInfo": null, "HasLabel": -1, "LabelID": 0 }, "geometry": { "type": "Point", "coordinates": [ 105.27499653600006, -5.374577028999965, 0.0 ] } },
{ "type": "Feature", "properties": { "OID_": 0, "Name": "Sukarame", "FolderPath": "Persebaran UPT Puskesmas Bandar Lampung.kml/Persebaran UPT Puskesmas Bandar Lampung", "SymbolID": 0, "AltMode": -1, "Base": 0.0, "Snippet": null, "PopupInfo": null, "HasLabel": -1, "LabelID": 0 }, "geometry": { "type": "Point", "coordinates": [ 105.292440264000049, -5.386770163999927, 0.0 ] } }
]
}
